time,altitude,pos_x,pos_y,vel_x,vel_y,vel_z,speed,mach,alpha_deg,dynamic_pressure,air_density,pitch,yaw,roll,omega_x,omega_y,omega_z,mass,thrust
0.0,0.0,0.0,0.0,0.0,0.0,0.0,0.0,0.0,90.0,0.0,1.225000018124288,0.0,0.0,0.0,0.0,0.0,0.0,36.0,0.0
0.05,0.025781330497469446,0.0,0.0,0.0,0.0,1.5550110041870453,1.5550110041870453,0.004569611897580403,65.76598793743517,1.4810576303446001,1.2249969861529182,0.0,0.0,0.0,0.0,0.0,0.0,35.94571428571428,2611.727428571429
0.1,0.1859054770201754,0.0,0.0,0.0,0.0,4.897041395792869,4.897041395792869,0.01439064995636594,35.201132155081794,14.688109408747097,1.2249781551426533,0.0,0.0,0.0,0.0,0.0,0.0,35.858,2808.2502
0.15000000000000002,0.5076181926596757,0.0,0.0,0.0,0.0,7.8958768143899345,7.8958768143899345,0.0232032369047157,23.631185654765368,38.184372962305524,1.224940321574586,0.0,0.0,0.0,0.0,0.0,0.0,35.768,2477.282
0.2,0.9779047133617209,0.0,0.0,0.0,0.0,10.937035940332464,10.937035940332464,0.032140316781098466,17.530860611477905,73.259610490178,1.224885017271936,0.0,0.0,0.0,0.0,0.0,0.0,35.686,2564.291
0.25,1.6029920828061648,0.0,0.0,0.0,0.0,14.073048668252795,14.073048668252795,0.04135630839700823,13.794104054285732,121.28738791849075,1.2248115118172744,0.0,0.0,0.0,0.0,0.0,0.0,35.599000000000004,2587.3176
0.3,2.3847986817130717,0.0,0.0,0.0,0.0,17.19323224666229,17.19323224666229,0.05052600201574233,11.363666497223589,181.01798471999672,1.224719582159837,0.0,0.0,0.0,0.0,0.0,0.0,35.516000000000005,2557.1782
0.35,3.3228302298351573,0.0,0.0,0.0,0.0,20.343638461085686,20.343638461085686,0.05978477919715516,9.640764744148063,253.41062041325446,1.2246092896023744,0.0,0.0,0.0,0.0,0.0,0.0,35.428,2618.8842
0.39999999999999997,4.420599286939559,0.0,0.0,0.0,0.0,23.573950319279902,23.573950319279902,0.06927870199235613,8.340668766961645,340.24089179001777,1.224480225002847,0.0,0.0,0.0,0.0,0.0,0.0,35.344,2643.646
0.44999999999999996,5.680279501286336,0.0,0.0,0.0,0.0,26.813835898291604,26.813835898291604,0.07880113927269451,7.345588149729983,440.1362592679244,1.22433213740149,0.0,0.0,0.0,0.0,0.0,0.0,35.254,2641.672
0.49999999999999994,7.102037498312589,0.0004089787998368093,0.00034759121212191526,0.016706168457049635,0.014193790528905858,30.057001470536182,30.057009464675097,0.08833367164756042,6.486754483843987,552.9699147108284,1.2241650125181356,-0.02537299194253295,-4.775665609703065e-06,0.021564725017012624,0.01562929172162744,-0.018395464078588424,2.280137759198364e-20,35.163999999999994,2639.6980000000003
0.5499999999999999,8.686027384512167,0.0016800788672059206,0.0014268065453309962,0.03391316919282479,0.028776714703473306,33.302493466138195,33.302523166639055,0.09787356640996753,5.70824355526267,678.7317913366057,1.2239788382343106,-0.10952989652196878,-8.89392343982838e-05,0.09302227513638076,0.03489802027717077,-0.04112100886905033,2.1961291733497934e-20,35.078,2635.5894
0.6,10.432196526748486,0.003745971799110317,0.003178247647154707,0.04778698434169719,0.040476630085730034,36.54292726305014,36.5429809252889,0.10739913934937655,4.9607043825271235,817.1071986229454,1.2237736274178461,-0.26554012306612507,-0.0005224052552366226,0.22533269294418806,0.0581646144740434,-0.06862688719227128,-3.4030423851322055e-19,34.998,2626.913
0.65,12.34019861193356,0.006326052616495452,0.005360632729768113,0.0536178885681991,0.04527965148357563,39.77592843162833,39.77599034245196,0.11690341010441599,4.204278812905148,967.9067660177953,1.2235494281228352,-0.5076806517912039,-0.001908189333688628,0.4304067050574257,0.08573924741392093,-0.10131880404903465,-2.3999910508936114e-18,34.908,2618.2364
0.7000000000000001,14.40964841636153,0.008853489541707458,0.007489169623611804,0.043746529585843824,0.03668712001090761,43.000755416884004,43.000793319731955,0.12638420069791026,3.410951336499048,1130.988399187926,1.2233062936323167,-0.8498181127400949,-0.005342752212608581,0.7197211968729479,0.1162135542978284,-0.1375776204914925,-3.759243780066047e-18,34.82545454545455,2609.6151212121213
0.7500000000000001,16.64015323555917,0.010226315762373431,0.008626678737937167,0.005696192152463281,0.00417670504035194,46.21819266227741,46.21819320201584,0.13584392190377056,2.5796247641111156,1306.2855180186584,1.2230442787576052,-1.293250787537269,-0.01236393384888229,1.094100883580477,0.1444555857774522,-0.17134769714245734,-5.459746678448668e-19,34.735,2600.8399999999997
0.8000000000000002,19.03133913620318,0.008802577181362691,0.007381505232954154,-0.0694669398277521,-0.05975075619580827,49.42774380680589,49.42782873685464,0.14528156130704106,1.7214303943632878,1493.6729450484254,1.22276343674879,-1.8258981157473333,-0.02462970524295922,1.5431053931344758,0.16775118364328973,-0.1994278460006989,-4.636871319795876e-18,34.65,2592.1634999999997
0.8500000000000002,21.58275070255231,0.0025374483962521096,0.0020247798572367495,-0.1890471659599634,-0.1611886562190856,52.626892836338456,52.627479231113696,0.154690640302557,0.857517929106736,1692.8994346203228,1.222463831062371,-2.427344593829592,-0.04350513850757411,2.049300358116215,0.18372046357454086,-0.21900838774564363,-5.5692212354690616e-18,34.565,2583.4869999999996
0.9000000000000002,24.293841382753612,-0.010944086709526086,-0.00944653828904457,-0.35892402518367095,-0.3049880171620445,55.814731355799104,55.81671864653538,0.1640699541792147,0.03087304711966668,1903.8009250582022,1.222145536479353,-3.068730820804249,-0.06950726106224486,2.5881371658699104,0.18971094381689774,-0.22693936929298025,-4.825871493410627e-18,34.475,2574.8105
0.9500000000000003,27.16399962077424,-0.03425463623823202,-0.029229341682270264,-0.5824800119715985,-0.4938490090826948,58.98904227070642,58.99398509868025,0.17341495854805958,0.7532052857372016,2126.1243586507057,1.221808636020129,-3.712318044957424,-0.10169370184185748,3.127536850367291,0.18334865054683452,-0.2203632534938923,6.835292003063497e-18,34.39,2566.134
1.0000000000000002,30.19246749097703,-0.07008934980324202,-0.059581522656085635,-0.8596993545941962,-0.7275669176251113,62.149114856333426,62.15931880277998,0.18272581711627733,1.4103810490593054,2359.713839643139,1.221453230475522,-4.314137536480565,-0.13731511227129448,3.630071355664252,0.16347369988897742,-0.19783374048904856,1.3466817985362819e-17,34.309230769230766,2566.9145384615385
1.0500000000000003,33.379135799359176,-0.1210927693525855,-0.10270776274938134,-1.188477380474944,-1.0041383359658016,65.32040970116431,65.33893705754339,0.1920796482252539,1.9059553254921626,2606.5017419199608,1.2210793451010618,-4.828277529805564,-0.1719681679889501,4.0565118640048095,0.1301764125059668,-0.1593768063173525,2.1132616564694957e-17,34.215357142857144,2580.801785714286
1.1000000000000003,36.72477422639285,-0.18967284121954536,-0.16060135321620644,-1.561021030408815,-1.3167503625418129,68.5077638267613,68.53819608596316,0.20149225495273956,2.1981980533625505,2867.0787942082843,1.220686902707707,-5.211299401154905,-0.2002960869723145,4.369617092788676,0.08490117729180492,-0.10661199458144949,5.215850524555695e-17,34.13304347826087,2594.5569130434783
1.1500000000000004,40.23019616751567,-0.2777174591872087,-0.23480508593687366,-1.9645056382020507,-1.6543535102598796,71.71181325440676,71.75778932056328,0.21096573531684795,2.257423761075827,3141.7101280728434,1.2202758217196656,-5.4270760494022285,-0.21718115643222588,4.538445292242532,0.030804789634928734,-0.0431780074490227,7.013270580028987e-17,34.047200000000004,2606.48936
1.2000000000000004,43.89610488686657,-0.38633889517269704,-0.3261967547251764,-2.380732736939764,-2.001407795046003,74.92541256211254,74.98993911938841,0.22047728266809669,2.0744697578517655,3429.896578598322,1.21984603422568,-5.4535962826856,-0.21930191922191203,4.544464619875854,-0.026772504794037782,0.024699808334468137,6.604780098559948e-17,33.964999999999996,2608.362166666667
1.2500000000000004,47.722870011085156,-0.5156661963849629,-0.4348170835191949,-2.7894599107692337,-2.340720219524137,78.14680997494675,78.23160465566531,0.2300180137950547,1.666326371507566,3731.4685516734676,1.219397512164123,-5.289352777326276,-0.2064221989692417,4.387219532783679,-0.08102234271398337,0.08902991586947155,9.163286240202361e-17,33.873783783783786,2610.240162162162
1.3000000000000005,51.710961044769846,-0.6648287997429566,-0.5598598877732562,-3.171001533082718,-2.6556607526921665,81.37882907474177,81.48387328994762,0.23959118306104557,1.0782293618303276,4046.6177009952125,1.218930216485811,-4.956636261133186,-0.18167740394060974,4.087077126846918,-0.12455814563044704,0.14109566703654156,7.093611169314531e-17,33.78818181818182,2612.1155151515154
1.3500000000000005,55.860981321523646,-0.8320170629671864,-0.6997284231430841,-3.5080298747347,-2.931702945501317,84.62431606505861,84.74771988225777,0.2491997155428693,0.384905805661637,4375.539977139396,1.2184440932000662,-4.503505417739387,-0.15078906223475988,3.686524884459317,-0.1496963421556727,0.17176902222521506,7.110482551881769e-17,33.699393939393936,2613.9667575757576
1.4000000000000006,60.17361677986024,-1.0146827758720156,-0.8522106176450657,-3.7888512643311145,-3.159200302078153,87.8831052596019,88.0214526721875,0.25883869620913974,0.31487320673141334,4718.159663914093,1.2179390794029366,-4.00221156065731,-0.12033338656345233,3.248259190887729,-0.150349558925041,0.17373195932792754,7.010539962178893e-17,33.61636363636364,2615.829909090909
1.4500000000000006,64.649474137372,-1.2099030172727914,-1.0147920527545617,-4.010653827686782,-3.336105616025287,91.1528006404506,91.30196060000324,0.2684990356475058,0.9087714176703393,5074.2154531903425,1.2174151222415528,-3.5401924463936276,-0.09568233746868612,2.847040030224804,-0.12438471281452726,0.14425298459185307,6.906993425203656e-17,33.528085106382974,2617.731978723404
1.5000000000000007,69.28903858127926,-1.414884032443074,-1.1850851065065628,-4.181571148344254,-3.469658785592505,94.43100144513512,94.58719841124494,0.27817477723711864,1.2965654878540191,5443.518367074444,1.2168721838574383,-3.20388816635681,-0.07978657883320035,2.555836667759313,-0.07496684715487095,0.0868485229143221,8.95978715271155e-17,33.442,2619.603
1.5500000000000007,74.09268652304475,-1.627514708866363,-1.3612968342497413,-4.320553599927834,-3.576206940279951,97.71590807224153,97.87673436456855,0.2878647086677188,1.4084990601561362,5826.037945501931,1.2163102398772045,-3.061077858285718,-0.07355757991603465,2.431108802085771,-0.010342126421021211,0.011055242473125962,8.949252086842653e-17,33.352,2621.4732
1.6000000000000008,79.06071557209575,-1.8468531148506304,-1.542636577066341,-4.454768937549807,-3.67893465102475,101.00593352786824,101.17103406751167,0.2975702567782833,1.2248790003275247,6221.845996761257,1.215729275890693,-3.1443632112973594,-0.07714752425711038,2.4991495537040667,0.056916712006314804,-0.06841799384740385,8.638877573492291e-17,33.264,2623.3442
1.6500000000000008,84.1933235110617,-2.0734201329041055,-1.729557146044672,-4.614549991133363,-3.803532228884851,104.2986478215116,104.46994240657233,0.307291022888236,0.7871134572937755,6630.941619303323,1.2151292898952142,-3.439369492372053,-0.09068327098899605,2.7464096460910516,0.11189209347332893,-0.13398421956420561,9.313756910404775e-17,33.18108108108108,2625.206675675676
1.7000000000000008,89.4905999431382,-2.309192134595471,-1.9237390124216351,-4.82656851366771,-3.972385939214342,107.59242934099356,107.77386726458269,0.3170282642240065,0.19741009317540945,7053.393905093449,1.214510293251843,-3.8813096777132388,-0.11336258531153968,3.1168019270563017,0.14038401689178875,-0.16876176919877886,8.566783310487599e-17,33.09034482758621,2627.0505517241377
1.7500000000000009,94.95252165477315,-2.5572270091463993,-2.127763941467255,-5.106211806243083,-4.198155094746928,110.8836522954787,111.08052147696456,0.32677530987382497,0.39807699937225666,7488.913758204271,1.2138723112033234,-4.363897864980596,-0.14141609438504457,3.519303512364402,0.13311235312507155,-0.16152483036718843,8.837521203607727e-17,33.005384615384614,2628.946923076923
1.800000000000001,100.57886458722328,-2.8209400994481255,-2.344495134733619,-5.451828906313781,-4.478976912481173,114.16917319260288,114.38699130621808,0.3365236432932283,0.8420123126457248,7937.087905765222,1.2132153931228313,-4.764072863256919,-0.1672688316398857,3.848910561881144,0.0904915938533625,-0.11238732615110919,9.122127028528554e-17,32.919999999999995,2630.7966666666666
1.850000000000001,106.36936702951257,-3.1032074653138455,-2.5763056637989434,-5.843873745995169,-4.797250366389323,117.45078313286844,117.69388654454846,0.3462751124015573,1.017800506210113,8397.958847368784,1.2125395934205885,-4.97735115307832,-0.18199040426784346,4.0175032463835745,0.02398009082067025,-0.03368825581143635,7.613661038481802e-17,32.8332,2632.67692
1.900000000000001,112.32398460170268,-3.4055531896863327,-2.8243660078320354,-6.248649858797899,-5.123687783575608,120.73499596495616,121.00511167805844,0.3560412606000306,0.877311484324464,8872.060454117218,1.211844941790836,-4.949119339910599,-0.180012675122231,3.98303654311833,-0.04669273729632924,0.05234937376894874,5.038017409198757e-17,32.7432,2634.5474
1.950000000000001,118.44303196656902,-3.727622817954908,-3.0882643348558854,-6.626688892937618,-5.425800166824957,124.02895026866153,124.32430501667892,0.365832852761271,0.4710207576351192,9359.946322116015,1.2111314267438256,-4.69723055872018,-0.162896813754641,3.766047740393567,-0.09900428790391977,0.11842862620046342,3.5347182340328155e-17,32.6584,2636.41792
2.000000000000001,124.72711411724336,-4.067218900681006,-3.366096408313955,-6.945960352063775,-5.678179235507911,127.33680308689625,127.65245593028747,0.3756528631303997,0.06502992755496745,9861.816363083644,1.2103990037080763,-4.314592083918911,-0.13870388986759233,3.448871026718018,-0.1140728692147977,0.14084234895551873,3.1247449704829825e-17,32.57357142857143,2638.291
2.0500000000000007,131.17691108884256,-4.420999304996518,-3.655082784023562,-7.194307208942416,-5.872471510275687,130.65629616990714,130.98592178816062,0.3854906357764349,0.5291837436226213,10377.150637420664,1.2096476201888777,-3.9442870286836937,-0.1172990925804693,3.152451527025688,-0.08511716141471662,0.10987431360713229,4.549271257292534e-17,32.486666666666665,2638.366
2.1000000000000005,137.79284236279776,-4.785672863469805,-3.9525744716428792,-7.386345212128457,-6.022479210599111,133.9816779342025,134.32020835860553,0.3953330046128211,0.7606501695313933,10905.232377923114,1.2088772548645625,-3.7281175070488177,-0.10567788591860462,2.992334641978261,-0.022501664244864328,0.03649999087836689,6.094009910651306e-17,32.39923076923077,2638.366
2.1500000000000004,144.57513166929195,-5.159308148385513,-4.257118069261647,-7.560221133090997,-6.160778365856541,137.31014013946066,137.65604497722853,0.405182174274162,0.6746909795288851,11446.141689440181,1.208087909978807,-3.74957441013141,-0.10681740373367017,3.0323478453670787,0.04928314429647901,-0.05062079055933326,5.746863967534771e-17,32.309400000000004,2638.366
2.2,151.52385541380062,-5.542184655663403,-4.569112089646552,-7.763228207942531,-6.32634647636275,140.63852684403582,140.99462970201444,0.41504172933341665,0.31730134269939725,12000.048770799178,1.2072796056550652,-3.9959660023633137,-0.12038928818387808,3.2555665736094674,0.1002162616601032,-0.1150991287316235,4.680166915198062e-17,32.2194,2638.366
2.25,158.63892792720597,-5.936754896523165,-4.890714343383114,-8.03165157393363,-6.547856736534287,143.96341268287514,144.33587927520676,0.42491148279610247,0.1498418633519236,12566.918363604773,1.2064523815678048,-4.356966853597872,-0.14196678204908816,3.565679689721889,0.10715312388100995,-0.12771303070856047,5.4112731338062436e-17,32.130434782608695,2638.366
2.3,165.92004087255523,-6.3466101405839135,-5.224937474764455,-8.372678409971533,-6.829241278805236,147.27936197635313,147.67515276566533,0.4347778281361623,0.5082090796157126,13145.901446606686,1.205606303930683,-4.668162715558507,-0.16213181905957788,3.8250061319593196,0.0662625935175117,-0.08183443396907165,5.481157418190348e-17,32.04533333333333,2637.0115333333333
2.3499999999999996,173.36664110901822,-6.774815597372804,-5.574260975782671,-8.758689905455407,-7.145908933344294,150.5828012080728,151.00648556606285,0.44462325557545435,0.5950278324088943,13735.834959177337,1.2047414679928774,-4.788201919220282,-0.17028686688293523,3.919184332369552,-0.0026595642661534774,0.00034152972486187205,9.700725311469974e-17,31.961666666666666,2630.851
2.3999999999999995,180.978210190367,-7.2224061492764156,-5.939424153109192,-9.139470648650027,-7.455748998261868,153.87961595498192,154.3309895105819,0.4544510868726665,0.378912903050811,14336.777210156635,1.203857965520085,-4.670354850946441,-0.16229544442541374,3.815689185136085,-0.06489363468142617,0.0774290719405087,1.2574345478593324e-16,31.874680851063832,2624.7614680851066
2.4499999999999993,188.75461080036874,-7.68784576468819,-6.31905005513801,-9.466817086141509,-7.7198692668288,157.1765137671643,157.65047886777563,0.4642667151237036,0.020096631357294732,14948.935890869476,1.2029558446195048,-4.390630739882274,-0.1441532423595632,3.5843869108788393,-0.08739852118732205,0.10852249248718561,1.297808310785476e-16,31.7884,2618.5706
2.499999999999999,196.69581993268847,-8.167807791297516,-6.710361117361121,-9.720788774725332,-7.9238712948539005,160.47077124006933,160.96008788852873,0.4740558619123782,0.36604131594792166,15571.253302134484,1.202035140787246,-4.113073522200629,-0.12725976855758506,3.364624107539833,-0.057613107371925536,0.07626136116917709,1.3307531364619768e-16,31.6984,2612.4356000000002
2.549999999999999,204.80155540264576,-8.659010893525844,-7.110726299319724,-9.923392309780455,-8.087992463955857,163.7568447309922,164.25648703561484,0.4838087668634179,0.47434394834552374,16202.900189627175,1.201095920208302,-3.9991430064792617,-0.12062795972608559,3.287704795820162,0.006550856807568416,0.00015622538087207982,1.241451399094339e-16,31.609310344827588,2606.3040344827587
2.5999999999999988,213.07128514910409,-9.160164746939095,-7.519230356372712,-10.12817318937634,-8.257114709615475,167.0296818610248,167.54006821676094,0.4935266264924087,0.28801132090813053,16843.745392292843,1.2001382785859946,-4.109878504389498,-0.12711797725760213,3.3979047475246125,0.06556764381120855,-0.07256373907871529,1.6420787198712876e-16,31.52487804878049,2600.2159756097562
2.6499999999999986,221.50422084602144,-9.672748657544256,-7.937239404176735,-10.386272380012663,-8.472627595567857,170.28440420786802,170.81111904309267,0.5032103284353665,0.05893001366001918,17493.64309160685,1.1991623417853492,-4.36561421017812,-0.14285363075159052,3.6232035189794685,0.08234611401022393,-0.09608058800740495,1.6337590522875049e-16,31.438400000000005,2594.0566
2.6999999999999984,230.0993295205413,-10.200006580076696,-8.367503874642441,-10.71330134051895,-8.745480506551722,173.51609786455418,174.06635077764108,0.5128502215734341,0.3350219647557809,18151.70671862693,1.1981682643866054,-4.594818268336617,-0.1578072103941846,3.818809962086038,0.0464745706642815,-0.05565331766861751,1.5881848772596742e-16,31.350800000000003,2587.9216
2.7499999999999982,238.85547224408367,-10.744763857208685,-8.812328311194928,-11.078004104744405,-9.048026966329035,176.7270203613037,177.30490318294304,0.5224438052968277,0.3638379809558197,18817.517117613243,1.1971562135562257,-4.647122467777227,-0.16133020738615825,3.8623973665190965,-0.01671725917371908,0.02007951001257035,1.5760835618499553e-16,31.26913043478261,2581.793434782609
2.799999999999998,247.77181286051692,-11.307478185514212,-9.272001505684528,-11.422486333549061,-9.332012582908181,179.92449692005738,180.5280705176439,0.5319949279005995,0.14058987227212386,19491.108216339144,1.1961263217959803,-4.497067048744831,-0.15133087851942875,3.7389039728221953,-0.06253887557178128,0.07750347299376437,1.5465324265732107e-16,31.182000000000006,2571.3091000000004
2.849999999999998,256.84771241937233,-11.88589008744015,-9.744591353051367,-11.702684206312489,-9.56235040033449,183.10892485304933,183.73151532508277,0.5414908419197728,0.16081085690157337,20171.296995367324,1.1950786992251834,-4.263411263730733,-0.13640276838470092,3.552418992835897,-0.05824991948749132,0.07551013961803013,1.5988157096855724e-16,31.101000000000003,2559.6901000000003
2.8999999999999977,266.0824076721197,-12.476654201797448,-10.227360389819882,-11.921835028077142,-9.743825994956005,186.27549490914183,186.9107602550008,0.5509183807188728,0.3130921143583117,20856.807786606118,1.1940134707189483,-4.1228089720402386,-0.12778155091572443,3.4500516108349704,-0.008620510462267146,0.01743218153972395,1.540460809298321e-16,31.012000000000004,2548.0712000000008
2.9499999999999975,275.4748795693437,-13.077831887095998,-10.71882409703929,-12.128914112900759,-9.918182984471047,189.41898154331926,190.06586090137253,0.560277731769261,0.21147571364843626,21547.3311893013,1.1929307910014313,-4.174656926923538,-0.13094710944415702,3.5094284095541486,0.04633682567083669,-0.04978942219243106,1.4297325301660316e-16,30.931250000000006,2536.4487500000005
2.9999999999999973,285.02383657992084,-13.690305965641677,-11.219847368435309,-12.379932515222565,-10.131111003999626,192.53425889494636,193.19767852508753,0.5695714549210745,0.04669134893441501,22242.747563415764,1.1918308464506164,-4.363106611342786,-0.14281844690493883,3.678130477940439,0.06245380284097851,-0.07203079667909218,1.3850695703236926e-16,30.84613636363637,2524.799204545455
3.049999999999997,294.72773247284823,-14.316910420175248,-11.732837217928017,-12.69158315667593,-10.39440238021725,195.6161981546605,196.30287023970916,0.5787897124942779,0.2395966946429427,22941.970130142086,1.1907138529244028,-4.523449478084896,-0.15335308528259436,3.816954383133588,0.027894306880194245,-0.032611364138983835,1.3103102643666307e-16,30.762200000000007,2513.1800200000007
3.099999999999997,304.58497283334304,-14.959924753243229,-12.259642229895336,-13.027161895512483,-10.676166458794828,198.66965882945004,199.38234830776236,0.5879352082664541,0.21035944521679528,23644.87832243284,1.189580031889523,-4.522047833301066,-0.15325888372762234,3.81794795619357,-0.025694262727336964,0.03198416468296917,1.4020385227657594e-16,30.675000000000004,2501.618000000001
3.149999999999997,314.59435878108155,-15.618998989176124,-12.799967985730401,-13.325944342406075,-10.92916215460087,201.7009780321292,202.43594522005208,0.5970074641155738,0.008959655394979255,24351.107017836843,1.188429559397981,-4.375629903678217,-0.14361373915414033,3.6958453388384074,-0.05163555290581415,0.0608214220949906,1.525513722593592e-16,30.594888888888896,2482.0771777777795
3.1999999999999966,324.7544032325985,-16.291375133907074,-13.35164148598841,-13.56080199321002,-11.130765035609352,204.6933821175574,205.44383651913571,0.6059480211328997,0.19082429138562154,25055.49811897931,1.1872626447367745,-4.2377870286481905,-0.13483189534123638,3.5709452733431992,-0.0285505914489703,0.027724977608499818,1.3024091098833366e-16,30.515600000000006,2456.5925200000015
3.2499999999999964,335.06292573494807,-16.974503351723378,-13.912525457785874,-13.765074436664912,-11.304514047058804,207.6392517636804,208.40184304623634,0.6147445373882074,0.1823379269961655,25756.505676070767,1.186079576766246,-4.247428368580511,-0.1354291798715914,3.558598123930838,0.01940563638458325,-0.03315653854754045,1.741513417803668e-16,30.435600000000004,2431.0572000000016
3.2999999999999963,345.51746708631833,-17.668353872599667,-14.482400006094828,-13.99713526311438,-11.496579474246163,210.53344349064182,211.31119696601232,0.6234006251446355,0.0075534792921649555,26453.89596178899,1.1848806760621202,-4.396591283659359,-0.1448634419740239,3.661527573873355,0.04510945249941362,-0.06223392093054566,1.6863473129181047e-16,30.355600000000006,2405.5215200000016
3.349999999999996,356.1153171735162,-18.37517812345383,-15.062926448511263,-14.282428077733565,-11.72984688637495,213.37109848684113,214.1700322856928,0.6319107530559432,0.15791680992031593,27146.677812721027,1.1836662915732539,-4.543274910402867,-0.15441937357610946,3.7711512864952508,0.02477871242695406,-0.033026947539988485,1.7208273590913094e-16,30.275600000000004,2379.985520000002
3.399999999999996,366.8536643624942,-19.097017170211306,-15.655749790555845,-14.589067879209733,-11.98181013820868,216.15473145605327,216.97758549354992,0.6402726371864237,0.1446771208377841,27834.13183237824,1.1824367833784175,-4.557564742745923,-0.15536573921138133,3.7794961578323387,-0.018174870576785563,0.02133879032513329,1.7258484157279232e-16,30.195600000000006,2354.449520000002
3.4499999999999957,377.7300420835984,-19.8335188062997,-16.26069282647407,-14.86239117637814,-12.209147664810924,218.8933264941881,219.73675692034791,0.6484948053995835,0.014184053926539684,28516.491774009457,1.181192471535583,-4.452637979424803,-0.14849566971305367,3.688675567392072,-0.03822798752014056,0.043474948418354364,1.640450167316669e-16,30.116666666666674,2328.745866666669
3.4999999999999956,388.74227377584737,-20.582296521576176,-16.875891051043336,-15.082583533415326,-12.393499119622778,221.58816010983384,222.44638870373217,0.6565738114922549,0.13778299737817482,29192.97178591461,1.179933642501213,-4.364140527496691,-0.1428368368496092,3.603355549266335,-0.016013905866520177,0.012505041741735778,1.811176227371377e-16,30.038260869565224,2303.505130434785
3.5499999999999954,399.88805276669075,-21.341419460742102,-17.499703033082444,-15.284652938245747,-12.560278972949467,224.23435263607308,225.10536671843192,0.6645063335395721,0.10088907289405286,29862.796019396887,1.1786605972041464,-4.3994559286526576,-0.14506719151809394,3.6139104903885806,0.02126637706482845,-0.03412564284585283,1.7992099255030319e-16,29.966800000000006,2278.291640000002
3.599999999999995,411.16481644833533,-22.111315073215756,-18.13229017556122,-15.518810730360913,-12.748307545555472,226.82698111282187,227.7143653626562,0.6722943241689022,0.04820505332163109,30525.668234475263,1.1773736653114808,-4.521743111997987,-0.15290405136253507,3.699739478752007,0.032195488209126905,-0.0425006413880687,1.8076737563334896e-16,29.88920000000001,2253.0298800000023
3.649999999999995,422.569789773125,-22.894089349750978,-18.775058780316204,-15.794889737964004,-12.964871168372001,229.36289870949972,230.27137410166978,0.6799318052358846,0.1270981966771772,31180.585284397977,1.1760732001212109,-4.5892781945424455,-0.15731816994775322,3.76378109350565,0.009127328572456597,-0.0010441498610368818,1.6859966469007164e-16,29.816800000000008,2227.7686400000025
3.699999999999995,434.1002570343596,-23.69075464007859,-19.428833794670318,-16.06555224239388,-13.182824168987965,231.84670908319018,232.7762559511364,0.6874183265127515,0.05374246424880604,31827.046950002597,1.1747595474799175,-4.526658857281533,-0.15319144071866242,3.74577410912409,-0.018434878502421818,0.0389639460805043,1.7253032231724716e-16,29.742500000000003,2197.284083333337
3.7499999999999947,445.753403537663,-24.499774995478628,-20.092826477416086,-16.287175988837216,-13.371483534944309,234.26815969426772,235.21402874861772,0.6947095889720907,0.07202190468034933,32460.467227000507,1.1734330637974175,-4.415259605125348,-0.145933238955072,3.685551349549557,-0.018032443799400937,0.03115003842390595,1.732993419535446e-16,29.67153846153847,2160.007230769235
3.7999999999999945,457.5259410740286,-25.318785689791618,-20.765488143259674,-16.471801416580767,-13.533183144030001,236.61739298409313,237.57579411738456,0.7017792348073516,0.0954312880258564,33077.82041946635,1.1720941585459683,-4.38555712939725,-0.14401871151942203,3.6684726810783728,0.007107722427204612,-0.010511146276873613,1.3572543723780935e-16,29.598000000000006,2107.7460000000124
3.8499999999999943,469.41248013186,-26.147033754927193,-21.446088333748158,-16.66188368722961,-13.692471304361439,238.81098460726307,239.78279443596026,0.708394485885426,0.007048655123881818,33656.409729086394,1.1707434788788256,-4.456903707646212,-0.14863777346404952,3.719510392514716,0.024138420342197563,-0.03231783700911832,1.3024088916771608e-16,29.538000000000007,1996.4860000000126
3.899999999999994,481.4036888299517,-26.985437991562037,-22.13498147652251,-16.875981831820123,-13.864337952305682,240.80409104834268,241.79253275331348,0.7144295413489271,0.08078798536985195,34183.16107580698,1.1693821174544692,-4.5238035695863,-0.15303207463032414,3.778229590600834,0.01304668004432194,-0.00964560754172136,1.2853059263698144e-16,29.476000000000006,1885.2260000000133
3.949999999999994,493.48960193476944,-27.834590396994194,-22.83251540112118,-17.084659118069986,-14.033689734426803,242.60042439870185,243.60582083187802,0.7198865025549414,0.052574425388088625,34657.11020069933,1.1680112352060048,-4.4979780805242475,-0.1513177488511169,3.7814255018802507,-0.00926922166232894,0.024415571286696944,1.1791488919678092e-16,29.40800000000001,1773.9660000000135
3.999999999999994,505.66056066406765,-28.69314702299586,-23.537871397640394,-17.24944942781165,-14.174870619472388,244.2062340241924,245.2247034842127,0.7247711124229181,0.03783468844064819,35077.79682152073,1.1666319544861068,-4.417079234108831,-0.1459811648383625,3.7425282769752366,-0.01343714585034233,0.025740356357604605,8.605857887348495e-17,29.345714285714294,1662.7058571428704
4.049999999999994,517.9072448185758,-29.558774197162563,-24.249431819862213,-17.37245532184751,-14.284455649440952,245.63359509682027,246.66112567102883,0.7291183785194414,0.07316601875892087,35447.76053411603,1.1652453555193234,-4.385426960967041,-0.14390899815293215,3.728987765316992,0.0056710699638130285,-0.004784970642048806,7.2008573677528e-17,29.304375000000004,1568.8264375000124
4.099999999999993,530.2211885546085,-30.43031089178806,-24.966165092069318,-17.49148789414016,-14.385961388017956,246.89639247849706,247.93292772986902,0.7329807591130126,0.011792788215868485,35771.43275094285,1.1638524182016308,-4.43575259650536,-0.1472183505616416,3.7738458552691028,0.022187296667672114,-0.0250498011977904,1.0445631480390335e-16,29.263404255319156,1475.4444255319274
4.149999999999993,542.5940753054284,-31.308254583212317,-25.68821666534605,-17.627622122852546,-14.497124923769224,247.99106440799756,249.0390887370355,0.736354970531619,0.05656866255950146,36047.97355838753,1.1624541021434407,-4.491981195081875,-0.15096514378582185,3.832217270298248,0.015086778320132601,-0.010156131400630127,1.3481341096654585e-16,29.22166666666667,1381.3934166666797
4.199999999999993,555.0175275752499,-32.19305715056096,-26.41589261384612,-17.760360104615195,-14.607306305338032,248.92020253981633,249.98014125327387,0.739242317274636,0.0404854972214145,36277.09129864851,1.1610513704314258,-4.480421584959449,-0.1501844179358503,3.847615866745012,-0.003258423840807498,0.01586223277848317,1.5497091050920874e-16,29.181600000000007,1288.1973600000128
4.249999999999993,567.4834495656249,-33.083721574539894,-27.1485681072014,-17.85999484203644,-14.695103232091448,249.69032836046003,250.75921827823947,0.7416517951136151,0.026319338654429626,36459.351132241245,1.159645150931446,-4.425769706861159,-0.14650687570487567,3.8272788268384326,-0.007302492822508043,0.017441659496349134,1.512978107327291e-16,29.132000000000005,1195.0383600000127
4.299999999999993,579.9839065403576,-33.97847987871579,-27.88495161155557,-17.927745697646152,-14.757682757211114,250.3011522472265,251.37593377738295,0.743581994369347,0.048324003239957586,36594.396449415915,1.158236349998779,-4.405903680228348,-0.14517519753010127,3.8244072618207694,0.006335894297510922,-0.004147612620193829,1.2119454515451201e-16,29.091600000000007,1101.8784000000128
4.3499999999999925,592.5108779650853,-34.87639810053308,-28.624189016168714,-17.99017366771076,-14.812091470104612,250.750704646092,251.83121387712208,0.7450353838045153,0.005133826838629629,36682.34727921741,1.156825880324366,-4.441905385227414,-0.1476008742496309,3.8617520318437917,0.01714394449292074,-0.01708929068687193,1.267651162416494e-16,29.051600000000008,1008.7193600000145
4.399999999999992,605.0562646494031,-35.777659847585625,-29.36623424484581,-18.06035202480474,-14.869690925042871,251.03779450353133,252.12548124428716,0.7460129416577089,0.039297861864450584,36723.271065946945,1.1554146600714839,-4.477813258540234,-0.15004452092197976,3.9055751741319225,0.01118453037392728,-0.005424205267794288,1.1918369347075815e-16,29.01160000000001,915.5603600000145
4.449999999999992,617.6119258542603,-36.68228262588901,-30.11109553046359,-18.120182555579444,-14.9221741315396,251.1602465455611,252.25479527946848,0.7465027329250908,0.02042960876935432,36716.05677871416,1.1540036086562484,-4.468618328169385,-0.14941259882208682,3.9175825199770813,-0.001956901018170226,0.00921067150110788,1.2397078960590738e-16,28.978965517241384,814.7576551724303
4.499999999999992,630.1693658579115,-37.5891567703352,-30.858105842372105,-18.150170343348588,-14.954232146687108,251.10804136237527,252.20687179265747,0.746468117104034,0.025229036977072943,36657.2659092887,1.1525936818968003,-4.445743559740656,-0.14784330561790757,3.9045126637830117,-0.004607798915995767,0.0039311894380371975,1.5277761703910942e-16,28.952790697674423,710.1710000000172
4.549999999999992,642.719787852014,-38.496908926905476,-31.60612881328817,-18.15844444559229,-14.96431867000357,250.88129573289652,251.9823098682885,0.745910566508755,0.028794130170068707,36547.32190387196,1.1511858657849015,-4.457553485910217,-0.14865111362246944,3.9045487996525563,0.00520601506218072,-0.01136403907761397,1.6389062057979334e-16,28.927500000000002,612.315250000013
4.599999999999992,655.2551442170346,-39.404980966993506,-32.354403555177136,-18.16506540029489,-14.966641671984155,250.51149921193124,251.61474758317325,0.7449293760296825,0.009657001078286723,36396.308605621016,1.149781058688685,-4.499156089852701,-0.15150862600175802,3.9328348472857173,0.01260544153613884,-0.014880114971333055,1.6400090389260168e-16,28.914400000000004,535.9815600000131
4.6499999999999915,667.7687886409489,-40.313466828764966,-33.102818376747045,-18.173328348112882,-14.96964793565257,250.0130007770011,251.11921627005464,0.7435688151960564,0.027433032929500806,36208.91561289045,1.14837999878126,-4.526899908921107,-0.1534287082251047,3.9648110711399247,0.008155577945666199,-0.0037352163892947817,1.4918158724166265e-16,28.893000000000004,459.62040000001275
4.699999999999991,680.2546318682275,-41.22214825046176,-33.85131108935021,-18.171225992248445,-14.968501572371384,249.4068274191525,250.515498635654,0.7418872554215064,0.011451816951266236,35991.19946269958,1.1469833591836707,-4.522064100012648,-0.1530915176096216,3.9747535748148253,-0.00046083017101456944,0.005117884910351126,1.2330086641987875e-16,28.87688888888889,407.26422222223067
4.749999999999991,692.7081836580509,-42.130290408105516,-34.599469444370285,-18.152043832970264,-14.955638069412531,248.7223406094316,249.83188452159473,0.7399683130448467,0.018823911792316766,35751.60676393104,1.1455916318855126,-4.51174343984001,-0.1523724100779173,3.9699073267283898,-0.0012604837765273396,0.0003603625061269827,1.1269752103809018e-16,28.866200000000003,358.1981400000085
4.799999999999991,705.1255718524832,-43.037162951611094,-35.346668594595805,-18.122407034402894,-14.931212392013014,247.96016875355582,249.06948433822208,0.7378151449887372,0.018652525274873967,35490.73382636819,1.1442052380645247,-4.526223052335582,-0.1533809025909846,3.975899727087622,0.005646480709697011,-0.009749348563264527,1.3532260823194116e-16,28.855128205128207,309.1728974359063
4.849999999999991,717.5029106622625,-43.94261054861726,-36.09256662903107,-18.09704038567877,-14.905429747999227,247.1214097955381,248.23107357063037,0.7354358438873793,0.024698689431121572,35209.66356157739,1.1428245988545926,-4.554311038333885,-0.15534405843942822,3.9977286653741344,0.007518573605318993,-0.006756239471539645,1.3158703696756585e-16,28.844,264.5324000000079
4.899999999999991,729.8365966964507,-44.84699546115374,-36.837292652119174,-18.077340324018916,-14.883276624219867,246.215263903814,247.3262184554808,0.7328586321797954,0.0332266352063277,34911.39881978202,1.1414501023785282,-4.549162728824377,-0.15498170876034448,4.007567143523907,-0.001164047229946387,0.010143258674120782,1.2331528290351457e-16,28.84,222.79140000000785
4.94999999999999,742.123381717947,-45.750135482127085,-37.58079847395531,-18.045066667037826,-14.855043560029427,245.24579239687486,246.3570486886041,0.7300897137255297,0.005268476404747384,34596.81467109735,1.1400820958121467,-4.505522814311184,-0.15191983677136336,3.992356619281901,-0.007776008109680258,0.017353608236133404,1.4040180785911958e-16,28.834,181.05100000000786
4.99999999999999,754.3601374726011,-46.65116971352289,-38.32257904826354,-17.99427478248045,-14.814419498171713,244.213931300349,245.32367433899813,0.7271293117791753,0.02999348014468737,34266.22182327597,1.1387209117292383,-4.468375749307426,-0.14932528183825558,3.9731861209157744,-0.004149129033584338,0.0070790262609868836,1.4592923671830375e-16,28.83,139.3101428571509
5.04999999999999,766.5439062557401,-47.549459304845705,-39.06211560007293,-17.93811945194749,-14.766995494528528,243.13033286237422,244.23799672282084,0.7240126058337373,0.016336534918093854,33923.21723528456,1.137366862560447,-4.467841561606393,-0.14928801044025836,3.973137557396332,0.0036103847880878184,-0.005048960119759001,1.44239743170042e-16,28.821,112.13200000000495
5.09999999999999,778.6725639910937,-48.44512680925969,-39.79932163656754,-17.88992141818593,-14.721929363160227,242.0098852833375,243.11636939411736,0.7207880028792427,0.016738783734418675,33572.559224343684,1.136020167103811,-4.483304488149344,-0.15036698765156942,3.98775875448818,0.005125389477961176,-0.0034694711951689496,1.3974232527598908e-16,28.82,86.57200000000536
5.14999999999999,790.7442842327315,-49.33855057229934,-40.534371122303284,-17.846581551753484,-14.679970579184024,240.85304842363166,241.95907287027975,0.7174562803541764,0.024005094283960575,33214.49200127912,1.1346810103919611,-4.477043951041066,-0.1499283015377661,3.9948474709642863,-0.0005775451004650708,0.007840689154448029,1.447691203204535e-16,28.82,61.0129000000054
5.1999999999999895,802.7572925876802,-50.22966903018253,-41.26727034519092,-17.796221162604404,-14.634877764582102,239.6616546375042,240.7666792528379,0.7140190819584435,0.003496699152828008,32849.340480808314,1.1333495710577666,-4.443851057661028,-0.1476056968645656,3.9848189696247966,-0.0053630818089701465,0.013432032839344781,1.4452769677106272e-16,28.811,35.4692000000054
5.249999999999989,814.7099446009232,-51.117959556410085,-41.99773190320222,-17.733410955055884,-14.582829370769664,238.44178840066067,239.54460802168626,0.7104924314363471,0.03171071177110835,32478.74281229853,1.1320260127492907,-4.413244528481228,-0.145470917247011,3.970545031269661,-0.0037435389293862887,0.00568423441325698,1.5201649225849927e-16,28.81,20.50375000000182
5.299999999999989,826.6013932979905,-52.00283735510179,-42.725519819004546,-17.662189408942673,-14.528802881620303,237.21522814106834,238.31513487378314,0.7069423710445025,0.029266409080539464,32108.842043525812,1.1307104103834813,-4.42352395727278,-0.14618558908666301,3.9654019377996508,-9.83538964248686e-05,-0.012132552798267832,1.405502986168207e-16,28.81,11.995000000001891
5.349999999999989,838.4313664400654,-52.884330562067206,-43.450644154642646,-17.599843370474478,-14.47661501805534,235.9826418038494,237.08043804112162,0.7033753585146844,0.008433684599755131,31740.24661909071,1.1294027751573665,-4.470662522693106,-0.14946395863073628,3.967540147739523,0.0007691664820261651,-0.01774239437141255,1.356578895969441e-16,28.81,3.5328461538479665
5.399999999999989,850.199562824633,-53.76305676166545,-44.173225529423604,-17.550310034038624,-14.426870148117866,234.7455935070298,235.84240847550979,0.6997970025606344,0.03137655182336339,31373.473775303755,1.1281031214750572,-4.506833635499794,-0.15198058929059335,3.966636245898012,-0.0017829391214330636,-0.006141589952686538,1.5577832115641112e-16,28.81,0.0
5.449999999999989,861.906075385316,-54.639395049082296,-44.89334351413092,-17.502018314888925,-14.37767647296281,233.5165940372607,234.61252719456118,0.6962413778883731,0.01407702532596967,31011.561865413456,1.1268114202704782,-4.503931065209497,-0.1517793236335649,3.9574452226367023,-0.004238365066925404,0.006485440451984922,1.517015846804219e-16,28.81,0.0
5.4999999999999885,873.5513954843314,-55.513076946877185,-45.61096460886489,-17.443524015528272,-14.326922803383185,232.29786797992506,233.39202367500286,0.6927121538942304,0.017951131119002036,30654.77778807902,1.1255275987260374,-4.483980528571282,-0.15039693470484555,3.9452795092115505,-0.0037054121975746285,0.0050972010287086795,1.6024538855626501e-16,28.81,0.0
5.549999999999988,885.1360183821367,-56.3836039328026,-46.326018417976705,-17.377484036677405,-14.27534141875394,231.08852365538243,232.18024913693932,0.689207426348743,0.025278217004700582,30302.89061688463,1.1242515839005218,-4.486145185505419,-0.15054619581637865,3.9382666839133518,-0.0011958390126605009,-0.006828825905354218,1.4427437109988534e-16,28.81,0.0
5.599999999999988,896.6603902897253,-57.25089197067165,-47.038524982630165,-17.315582007412104,-14.22534311147092,229.88771866010117,230.97738624731278,0.685727757850737,0.002477468121332439,29955.890236733914,1.1229833085523415,-4.518780025551466,-0.15279950073449258,3.937504766407457,0.00013688036846406875,-0.01412381862007483,1.3102472637003918e-16,28.81,0.0
5.649999999999988,908.1249186540981,-58.115342562569495,-47.748598749744005,-17.263714483890173,-14.177936562973754,228.6946990486263,229.7831914999588,0.6822724454332045,0.020577012422600585,29613.65626866137,1.1217227099827334,-4.554126305774012,-0.15524006282409586,3.9367845478876884,-0.001067725600086291,-0.009063222865398207,1.1038498345199389e-16,28.81,0.0
5.699999999999988,919.5299907734332,-58.97736875152762,-48.45632533309314,-17.217372560860408,-14.130891646700112,227.5096216237351,228.59734895226882,0.6788405703358058,0.023140777328818973,29276.052078962362,1.1204697279705034,-4.56341662567904,-0.15588132059708384,3.9318591046869975,-0.001975922869025078,0.002482844557482343,1.3803966905977669e-16,28.81,0.0
5.749999999999988,930.8760309331394,-59.837019858538326,-49.161660196896214,-17.167373772763185,-14.082408898777153,226.33353678888642,227.42010209744504,0.675432874965085,0.005214818122385812,28943.085985949343,1.119224298491032,-4.545156958859965,-0.15462315786335143,3.9282078968415584,-0.0002500316629174054,0.00846915929799387,1.5261057520916085e-16,28.81,0.0
5.799999999999987,942.1634948911627,-60.69395628399383,-49.864568731963885,-17.109144118372278,-14.034188227669562,225.16643064019934,226.25119389501702,0.6720486154355291,0.020710884901158317,28614.638672989167,1.117986354335695,-4.526910307789904,-0.15336610230070533,3.930768409859606,0.0018962969700831323,0.0029456092921414465,1.443604347743349e-16,28.81,0.0
5.849999999999987,953.3928103457049,-61.547883893646386,-50.56511509840016,-17.04847785915664,-13.988049571080804,224.007494814293,225.09036821039828,0.6686870497907033,0.01640213124429425,28290.593374293014,1.1167558316447461,-4.532823063896761,-0.15377423853613956,3.937004030251806,0.002054099270104119,-0.006545275991574678,1.4094816354803742e-16,28.81,0.0
5.899999999999987,964.5643717899524,-62.39890629872457,-51.26340953666603,-16.993741661034342,-13.94390249608751,222.856208617543,223.9377355245163,0.665348524547755,0.006990502534858616,27970.927194073538,1.115532670454784,-4.5574960291155415,-0.15547866609124733,3.9406990365017007,0.00031721815632000053,-0.009130232323142744,1.1286500102085973e-16,28.81,0.0
5.949999999999987,975.6785511180713,-63.24739166273578,-51.95951137703915,-16.94637369401777,-13.900071349350165,221.71221673837414,222.79295010376364,0.662032030437926,0.01888900950510172,27655.50391771277,1.1143168135212245,-4.575788893708914,-0.15674274145018763,3.9392272691999013,-0.0011754570963319918,-0.0028814034291533086,1.13353693043404e-16,28.81,0.0
5.999999999999987,986.7357228898582,-64.09357148612013,-52.65340012535207,-16.90034067521268,-13.85534488397996,220.57602450089917,221.65598273318395,0.6587374982160809,0.01082263917207957,27344.26810466827,1.1131082035452446,-4.572595508641241,-0.15652234679633095,3.935920292371865,-0.0008305175169494698,0.0043690336125653305,1.0056674102380395e-16,28.81,0.0
6.0499999999999865,997.7362927764292,-64.93734243429681,-53.34503675070414,-16.84959955786759,-13.81018798143637,219.44812863871238,220.5268950953057,0.6554651288722723,0.009101513761034954,27037.18723089269,1.1119067800673967,-4.55772278234453,-0.15549594072877906,3.9357238612626793,0.0007779538428872249,0.004746832453059838,1.0394831463600293e-16,28.81,0.0
6.099999999999986,1008.6806662170067,-65.77844922251606,-54.03443461515286,-16.79444959660604,-13.76598806821269,218.3280642812831,219.40533178926896,0.6522138835159127,0.016415270293950537,26734.12728785768,1.1107124828983155,-4.552266187195503,-0.15511928349604492,3.9397378697403687,0.0018151948285227142,-0.0013399710340293615,1.0369216327902133e-16,28.81,0.0
6.149999999999986,1019.5692233300575,-66.61678921298521,-54.72165273802783,-16.73962348524986,-13.722768025378976,217.21544257615903,218.29126837842813,0.6489837063670016,0.010937660210349346,26435.037147862036,1.1095252548507115,-4.565918759205947,-0.15606332414428656,3.945482082632498,0.002197207758679666,-0.007708929204003273,1.2505517420053879e-16,28.81,0.0
6.199999999999986,1030.4023306590034,-67.45248648012402,-55.40671307498169,-16.689158536029264,-13.679727523115162,216.110018272966,217.18472081545949,0.6457746614781293,0.004892777212558555,26139.87607887998,1.1083450404466608,-4.591382258553665,-0.15782679731378157,3.952949725858007,0.002901821818275522,-0.009055612487076694,1.208748281413206e-16,28.81,0.0
6.249999999999986,1041.1803377870467,-68.28579318776774,-56.08963705801763,-16.6435720301909,-13.637379951503897,215.01141905768247,216.08539272024885,0.6425858838769544,0.013757041386266882,25848.529059682616,1.1071717862777777,-4.611697888039796,-0.15923660458892783,3.9620001098315694,0.00323313822351819,-0.004657938138492166,1.2971778118720477e-16,28.81,0.0
6.299999999999986,1051.9035901338884,-69.1168618251507,-56.77046687009367,-16.598876024374455,-13.595942024275733,213.91990055149003,214.99324681663703,0.6394172786144865,0.00792469502713726,25560.944900705977,1.1060054396043635,-4.617216828833125,-0.15962036587278666,3.9709532716020552,0.002919314905430197,0.00030925576862666886,1.1020287213053948e-16,28.81,0.0
6.349999999999985,1062.572452367004,-69.9456273131209,-57.44924184331201,-16.55115513195559,-13.555108251488148,212.83581981193515,213.90831655391557,0.6362689610877424,0.005649533375344607,25277.089748792423,1.1048459458082842,-4.614479650349153,-0.1594295528477237,3.978484643414681,0.0023735201453390776,0.000740918936340193,9.973432808601139e-17,28.81,0.0
6.399999999999985,1073.1872918876165,-70.77192197830134,-58.12597966192691,-16.50044752820723,-13.514403722872112,211.75893114562174,212.83032865771756,0.6331401341880812,0.012132821014676762,24996.857951198708,1.1036932501920065,-4.617656570200644,-0.1596515108421829,3.98491325925963,0.0021901235827908655,-0.0033024179043638774,8.385844271654388e-17,28.81,0.0
6.449999999999985,1083.7484606645287,-71.59567766501817,-58.80068156967158,-16.450207878529653,-13.47369469407406,210.6889453622031,211.7592536013323,0.6300307253858167,0.006214798650394667,24720.202805742403,1.1025472999481145,-4.633508121784961,-0.16076038966231343,3.991684158259417,0.0025316243982090912,-0.007333990125936618,9.056779752705349e-17,28.81,0.0
6.499999999999985,1094.2562969579292,-72.41700367128762,-59.47335334581471,-16.403452000806286,-13.433260375076426,209.6255865016204,210.69506932530643,0.6269406841190563,0.005421998557069592,24447.079964943518,1.101408043963835,-4.655612360927392,-0.16230945045594591,3.999807061075218,0.0030257004578745886,-0.007424643754827764,8.699888765445766e-17,28.81,0.0
6.549999999999985,1104.711124894404,-73.23607997596635,-60.1440181341145,-16.35986137429342,-13.393451698677703,208.56861226985018,209.63753394075692,0.62386930538548,0.010413197354262573,24177.39494749624,1.100275432859273,-4.672224328040443,-0.16347606736616196,4.0089211957265825,0.0031966390169835,-0.003952951717763822,8.293520070992869e-17,28.81,0.0
6.5999999999999845,1115.1132679173943,-74.05299575638212,-60.81271087166843,-16.316565898882402,-13.354768665484707,207.51819326228036,208.58662637782493,0.6208165409510055,0.010374724511420444,23911.105653935443,1.0991494175241383,-4.6782867651289335,-0.1639027343377324,4.017808355844622,0.0024198015507339793,-0.0006464216304846141,8.253175042930995e-17,28.81,0.0
6.649999999999984,1125.4630486823578,-74.86770430535861,-61.47958429172988,-16.271426358708144,-13.32065815264812,206.4741079715931,207.54218007921102,0.6177819093783672,0.019475347984574364,23648.13733580827,1.098029949127038,-4.678829548936514,-0.16394096873615094,4.016855788721133,-0.0036016073584011687,-0.0002804020197139715,8.678207970079983e-17,28.81,0.0
6.699999999999984,1135.7607881380284,-75.68010509817597,-62.14479095737365,-16.224490158391333,-13.287215960271748,205.43659540729143,206.50418620796478,0.6147653984166892,0.013337239330149166,23388.452270042937,1.0969169792126672,-4.68290247838461,-0.16422707576592738,3.996831805441267,-0.009762155217596317,-0.002817901643197988,8.91026092820999e-17,28.81,0.0
6.749999999999984,1146.0068211682114,-76.49015639744201,-62.80823893914798,-16.177826720048916,-13.2499829634286,204.40582421855112,205.47268699362525,0.6117671478466792,0.008975452117789086,23132.024616008417,1.0958104580107917,-4.69527410864831,-0.165090778425287,3.966696943611509,-0.0102684278958488,-0.005593015421406895,9.977829642987072e-17,28.81,0.0
6.799999999999984,1156.2014760755376,-77.29792642912146,-63.46972124441833,-16.133396129800524,-13.209047532664247,203.38139097148877,204.44743970247907,0.608786448822856,0.01694085602551356,22878.764907777466,1.094710336653443,-4.712534696740661,-0.16628786336296614,3.9439079011344766,-0.00525133042451535,-0.006028995646791959,9.973543904439457e-17,28.81,0.0
6.849999999999984,1166.3450602428638,-78.10353720497788,-64.1291459741567,-16.09127684529182,-13.168409465010976,202.36296741290744,203.42838243103506,0.6058231304391872,0.012111252627988832,22628.625618958795,1.093616568715962,-4.727188180984235,-0.16730045215850348,3.937300194885817,9.150250512102772e-05,-0.003999662960681512,9.549887705852673e-17,28.81,0.0
6.8999999999999835,1176.437871115382,-78.90706639334526,-64.78663286557712,-16.049816775810246,-13.131836747039758,201.35045067841438,202.41552742635275,0.602877242392101,0.0072118944720838225,22381.576315399892,1.0925291090238574,-4.734986334947401,-0.16783914988570367,3.939978267807113,0.0008624399113343062,-0.0016402804846884353,9.242050272988293e-17,28.81,0.0
6.949999999999983,1186.4802020503707,-79.70850044501746,-65.44240488180081,-16.007318393469248,-13.09947015572573,200.34377238903238,201.40868277107384,0.5999482261189913,0.014608216499132026,22137.541962076564,1.0914479130175805,-4.738417521381291,-0.1680762487703955,3.9373548456877514,-0.0031496982588119114,-0.0011414542427520386,1.0247332424258423e-16,28.81,0.0
6.999999999999983,1196.4723465941104,-80.50777514818182,-66.09659968327728,-15.963568249301947,-13.068140841294252,199.3429972007215,200.40769034461945,0.5970356233880844,0.011518697854600891,21896.456245634847,1.0903729362893744,-4.743711765562899,-0.16844110741390997,3.9211338467056693,-0.007852543940210996,-0.002780979216103009,1.046139936101912e-16,28.81,0.0
7.049999999999983,1206.4146011327734,-81.30485641524334,-66.74917969510122,-15.919840026582582,-13.034573654889286,198.34816318853248,199.41247517921596,0.5941392234318801,0.005825021168381036,21658.27204863322,1.08930413429699,-4.754873117950912,-0.1692061322323412,3.895996410583913,-0.009002259258921858,-0.0049105156165451785,1.1819685635483836e-16,28.81,0.0
7.099999999999983,1216.3072579415702,-82.09978427438921,-67.40000709014654,-15.877530619510136,-12.99787541555807,197.3590454509651,198.4228655301802,0.5912585268911906,0.020487553843383983,21422.92205801068,1.0882414631097117,-4.770393672784358,-0.17026353004296135,3.874028995894331,-0.005466661305392672,-0.00569605567852446,1.019688727046804e-16,28.81,0.0
7.149999999999983,1226.1505991513375,-82.89263223147881,-68.04888587772449,-15.836565310352313,-12.957106629861908,196.37551606445325,197.43866572337598,0.5883929627065458,0.028450645530699183,21190.33502332335,1.0871848800526056,-4.7861784375265,-0.17133519700616048,3.871309212885461,0.003795780873591144,-0.005193406120138721,1.0746006527903249e-16,28.81,0.0
7.199999999999982,1235.9448991641495,-83.68345502249174,-68.69574719030246,-15.796402959840403,-12.918193668536599,195.39736513254388,196.4600121522651,0.5855429491368929,0.011464173862560913,20960.511847326565,1.0861343434420112,-4.799454100960192,-0.17223892204639868,3.8941622919290593,0.011076939195324842,-0.004097318943530727,1.1354281995122421e-16,28.81,0.0
7.249999999999982,1245.6904217731458,-84.47227265649241,-69.3408187784765,-15.75624900287195,-12.88574593740972,194.42437157749285,195.4869256352122,0.58270855996822,0.014238214396515209,20733.42852215206,1.0850898128896607,-4.8100113105533655,-0.1729631062718699,3.9268675611880686,0.010381037785176496,-0.0034298346355868025,1.1641689235410483e-16,28.81,0.0
7.299999999999982,1255.3874168549246,-85.25907175571422,-69.98441805749411,-15.71565753013241,-12.858644938247917,193.4562855863448,194.5190506714387,0.5798887469825256,0.025418600708611384,20508.981885638972,1.084051249651254,-4.820048969274298,-0.17365667173391044,3.9469467849306064,0.003112681409757744,-0.003739705251469089,1.1637673591562876e-16,28.81,0.0
7.349999999999982,1265.036138910678,-86.04383494153974,-70.6266881310622,-15.67490647102093,-12.83168741079495,192.49352629191674,193.5564841563838,0.5770838102501422,0.014486998268328784,20287.165641098913,1.0830186146360974,-4.832063644428196,-0.17448867306619933,3.944822862104532,-0.0039694510618141915,-0.004697369923785688,1.1686824325965018e-16,28.81,0.0
7.399999999999982,1274.6368645581,-86.82657064294716,-71.26751026647848,-15.63465630344186,-12.800360168179287,191.53642872639537,192.59931263486743,0.5742940191811218,0.008087717183662324,20067.971064696543,1.0819918665376849,-4.846736224803422,-0.17550222128359821,3.930425767666375,-0.004988384428199648,-0.005471543622879427,1.3319021828592036e-16,28.81,0.0
7.4499999999999815,1284.18987043458,-87.60731657153231,-71.9066416266831,-15.59533720996569,-12.764451539822929,190.58466580242884,191.64722957775444,0.5715184710230894,0.021881992150411624,19851.307833917104,1.080970964201584,-4.862562555193866,-0.17659210838795814,3.9229169579234315,0.0003200406784221524,-0.005470588132556551,1.2617678433800538e-16,28.81,0.0
7.499999999999981,1293.6954157418315,-88.38611905507834,-72.54393902836796,-15.55685903682081,-12.727754959187047,189.63797674552885,190.70021980461993,0.5687571313660553,0.017015657918551415,19637.14741415246,1.079955868487496,-4.877316294436491,-0.1776085350107736,3.934026092391393,0.007037581662924099,-0.004797677896436337,1.2441961658655035e-16,28.81,0.0
7.549999999999981,1303.1537500037343,-89.16300857715692,-73.17947697664295,-15.518731025597223,-12.694536584899524,188.69620332843206,189.75837115214486,0.5660102729238558,0.002096085419281122,19425.482693911512,1.0789465414336852,-4.889931154039615,-0.17848184656320146,3.959322457631069,0.009630271449695187,-0.004087274099731964,1.1506053984259217e-16,28.81,0.0
7.599999999999981,1312.565113618211,-89.93798969020865,-73.81347642528723,-15.480476204475702,-12.666050649324449,187.75911264913137,188.82149868422766,0.5632773546810562,0.017028117204560725,19216.250873312943,1.077942946193225,-4.901236976490453,-0.1792697750889831,3.9834609741547506,0.006441163517597414,-0.0039376062719320305,1.1879072301287653e-16,28.81,0.0
7.649999999999981,1321.9297387316478,-90.71104454886971,-74.446140408496,-15.441586125695746,-12.640793233650212,186.82669482508987,187.88945189903674,0.5605579379917187,0.02541466940310355,19009.39725486729,1.0769450469362003,-4.913652664200425,-0.1801389023717554,3.99239062161403,-0.0005572937848924864,-0.004982705050044159,1.3048047960083832e-16,28.81,0.0
7.699999999999981,1331.2478657785252,-91.4821400025136,-75.07755323136769,-15.402281142416454,-12.61527744835821,185.89924253629684,186.96230600058936,0.5578522574566848,0.014281323068122529,18804.913467495287,1.0759528070848596,-4.930686139260181,-0.18133072973334324,3.981045513260276,-0.006786741031070915,-0.00693862668246352,1.403321735936749e-16,28.81,0.0
7.7499999999999805,1340.5197497113286,-92.25128612287115,-75.70759960135568,-15.363780133984339,-12.58584959421031,184.97695856768104,186.0401154347177,0.5551604858570646,0.008415159869576002,18602.786825151496,1.0749661886529323,-4.952689675345223,-0.1828634555465456,3.959264850851828,-0.007492501733519317,-0.008242155010817246,1.386050003171938e-16,28.81,0.0
7.79999999999998,1349.7456421666373,-93.01854377315897,-76.33606722393175,-15.326761223271768,-12.552469474282626,184.05952177287207,185.12261248901052,0.5524818345019477,0.021698524302491515,18402.940562056312,1.073985154145617,-4.97622644926178,-0.18449501662331083,3.944078629438304,-0.002635204118286315,-0.007981224378925546,1.2853688178691634e-16,28.81,0.0
7.84999999999998,1358.925779008902,-93.78398314978077,-76.96283201283701,-15.290925547884461,-12.518379604199495,183.14671431108493,184.20977497128632,0.5498162470018205,0.018208630331386075,18205.347932359793,1.0730096678803185,-4.997088325207232,-0.185938643307365,3.945930194033971,0.003579414932707914,-0.006530299519972188,1.4268975341631684e-16,28.81,0.0
7.89999999999998,1368.0603891580383,-94.54764056317852,-77.58795648884735,-15.255321617425984,-12.487282865013967,182.23844410949638,183.30168461433192,0.5471639770522526,0.003317823270215896,18010.002931137198,1.0720396950426303,-5.013568396054723,-0.1870817670941734,3.9614186457270377,0.006349466415193607,-0.005124150193474418,1.2455400138881247e-16,28.81,0.0
7.94999999999998,1377.1496963212371,-95.30950453163669,-78.21163625712184,-15.219109928864588,-12.46050438217542,181.33456258304363,182.3982156263291,0.5445246588208236,0.01557934015989294,17816.858847030617,1.0710752014989977,-5.027493517864621,-0.18805187314143385,3.977245387769538,0.003933153266048319,-0.004839956538986468,1.2836744056320243e-16,28.81,0.0
7.99999999999998,1386.193917936008,-96.06953850341539,-78.83405270131735,-15.182180825953386,-12.436274352938126,180.4350530221532,181.4992228455007,0.5418978683830113,0.019341310844800768,17625.86599215152,1.070116153905809,-5.042512013844574,-0.18910096299090565,3.9811057613920187,-0.0013927983524642433,-0.005815508379097155,1.3345690139051784e-16,28.81,0.0
8.04999999999998,1395.1932783169998,-96.82772052467047,-79.45525279529228,-15.145167159921337,-12.41137278746997,179.54014359893657,180.60476579065755,0.5392837927898008,0.00908964178139012,17437.015040147122,1.0691625183134505,-5.061222189919966,-0.19040668591439566,3.9706656271984975,-0.0054454265624132156,-0.007250845612051111,1.2740367197730793e-16,28.81,0.0
8.09999999999998,1404.1480107191094,-97.58406762739669,-80.075139794671,-15.108887322240953,-12.383614085081074,178.64991365706507,179.71484085517588,0.5366824306513359,0.008078460612023329,17250.284450821553,1.0682142599493996,-5.083379688798877,-0.19194745343544065,3.9542788524749213,-0.0053825978142170985,-0.008091738178104406,1.261405699841803e-16,28.81,0.0
8.14999999999998,1413.0583431149212,-98.33862859719721,-80.69356829337653,-15.073723814034716,-12.353298914166745,177.7641030356364,178.82924109817415,0.5340931731996651,0.01725336653694065,17065.614089420353,1.0672713447249884,-5.106354077654398,-0.19353940721684101,3.94389317642336,-0.0016061416267107637,-0.007816271677501657,1.320103033572256e-16,28.81,0.0
